{
    "direction": [
        {
            "direction_id": "0",
            "direction_name": "Southbound",
            "stop": [
                {
                    "stop_order": "1",
                    "stop_id": "70061",
                    "stop_name": "Alewife",
                    "parent_station": "place-alfcl",
                    "parent_station_name": "Alewife",
                    "stop_lat": "42.395428",
                    "stop_lon": "-71.142483"
                },
                {
                    "stop_order": "2",
                    "stop_id": "70063",
                    "stop_name": "Davis - Inbound",
                    "parent_station": "place-davis",
                    "parent_station_name": "Davis",
                    "stop_lat": "42.39674",
                    "stop_lon": "-71.121815"
                },
                {
                    "stop_order": "3",
                    "stop_id": "70065",
                    "stop_name": "Porter - Inbound",
                    "parent_station": "place-portr",
                    "parent_station_name": "Porter",
                    "stop_lat": "42.3884",
                    "stop_lon": "-71.119149"
                },
                {
                    "stop_order": "4",
                    "stop_id": "70067",
                    "stop_name": "Harvard - Inbound",
                    "parent_station": "place-harsq",
                    "parent_station_name": "Harvard",
                    "stop_lat": "42.373362",
                    "stop_lon": "-71.118956"
                },
                {
                    "stop_order": "5",
                    "stop_id": "70069",
                    "stop_name": "Central - Inbound",
                    "parent_station": "place-cntsq",
                    "parent_station_name": "Central",
                    "stop_lat": "42.365486",
                    "stop_lon": "-71.103802"
                },
                {
                    "stop_order": "6",
                    "stop_id": "70071",
                    "stop_name": "Kendall/MIT - Inbound",
                    "parent_station": "place-knncl",
                    "parent_station_name": "Kendall/MIT",
                    "stop_lat": "42.36249079",
                    "stop_lon": "-71.08617653"
                },
                {
                    "stop_order": "7",
                    "stop_id": "70073",
                    "stop_name": "Charles/MGH - Inbound",
                    "parent_station": "place-chmnl",
                    "parent_station_name": "Charles/MGH",
                    "stop_lat": "42.361166",
                    "stop_lon": "-71.070628"
                },
                {
                    "stop_order": "8",
                    "stop_id": "70075",
                    "stop_name": "Park Street - to Ashmont/Braintree",
                    "parent_station": "place-pktrm",
                    "parent_station_name": "Park Street",
                    "stop_lat": "42.35639457",
                    "stop_lon": "-71.0624242"
                },
                {
                    "stop_order": "9",
                    "stop_id": "70077",
                    "stop_name": "Downtown Crossing - to Ashmont/Braintree",
                    "parent_station": "place-dwnxg",
                    "parent_station_name": "Downtown Crossing",
                    "stop_lat": "42.355518",
                    "stop_lon": "-71.060225"
                },
                {
                    "stop_order": "10",
                    "stop_id": "70079",
                    "stop_name": "South Station - Outbound",
                    "parent_station": "place-sstat",
                    "parent_station_name": "South Station",
                    "stop_lat": "42.352271",
                    "stop_lon": "-71.055242"
                },
                {
                    "stop_order": "11",
                    "stop_id": "70081",
                    "stop_name": "Broadway - Outbound",
                    "parent_station": "place-brdwy",
                    "parent_station_name": "Broadway",
                    "stop_lat": "42.342622",
                    "stop_lon": "-71.056967"
                },
                {
                    "stop_order": "12",
                    "stop_id": "70083",
                    "stop_name": "Andrew - Outbound",
                    "parent_station": "place-andrw",
                    "parent_station_name": "Andrew",
                    "stop_lat": "42.330154",
                    "stop_lon": "-71.057655"
                },
                {
                    "stop_order": "13",
                    "stop_id": "70095",
                    "stop_name": "JFK/UMASS Braintree - Outbound",
                    "parent_station": "place-jfk",
                    "parent_station_name": "JFK/Umass",
                    "stop_lat": "42.320685",
                    "stop_lon": "-71.052391"
                },
                {
                    "stop_order": "14",
                    "stop_id": "70097",
                    "stop_name": "North Quincy - Outbound",
                    "parent_station": "place-nqncy",
                    "parent_station_name": "North Quincy",
                    "stop_lat": "42.275275",
                    "stop_lon": "-71.029583"
                },
                {
                    "stop_order": "15",
                    "stop_id": "70099",
                    "stop_name": "Wollaston - Outbound",
                    "parent_station": "place-wlsta",
                    "parent_station_name": "Wollaston",
                    "stop_lat": "42.2665139",
                    "stop_lon": "-71.0203369"
                },
                {
                    "stop_order": "16",
                    "stop_id": "70101",
                    "stop_name": "Quincy Center - Outbound",
                    "parent_station": "place-qnctr",
                    "parent_station_name": "Quincy Center",
                    "stop_lat": "42.251809",
                    "stop_lon": "-71.005409"
                },
                {
                    "stop_order": "17",
                    "stop_id": "70103",
                    "stop_name": "Quincy Adams - Outbound",
                    "parent_station": "place-qamnl",
                    "parent_station_name": "Quincy Adams",
                    "stop_lat": "42.233391",
                    "stop_lon": "-71.007153"
                },
                {
                    "stop_order": "18",
                    "stop_id": "70105",
                    "stop_name": "Braintree",
                    "parent_station": "place-brntn",
                    "parent_station_name": "Braintree",
                    "stop_lat": "42.2078543",
                    "stop_lon": "-71.0011385"
                }
            ]
        },
        {
            "direction_id": "1",
            "direction_name": "Northbound",
            "stop": [
                {
                    "stop_order": "1",
                    "stop_id": "70105",
                    "stop_name": "Braintree",
                    "parent_station": "place-brntn",
                    "parent_station_name": "Braintree",
                    "stop_lat": "42.2078543",
                    "stop_lon": "-71.0011385"
                },
                {
                    "stop_order": "2",
                    "stop_id": "70104",
                    "stop_name": "Quincy Adams - Inbound",
                    "parent_station": "place-qamnl",
                    "parent_station_name": "Quincy Adams",
                    "stop_lat": "42.233391",
                    "stop_lon": "-71.007153"
                },
                {
                    "stop_order": "3",
                    "stop_id": "70102",
                    "stop_name": "Quincy Center - Inbound",
                    "parent_station": "place-qnctr",
                    "parent_station_name": "Quincy Center",
                    "stop_lat": "42.251809",
                    "stop_lon": "-71.005409"
                },
                {
                    "stop_order": "4",
                    "stop_id": "70100",
                    "stop_name": "Wollaston - Inbound",
                    "parent_station": "place-wlsta",
                    "parent_station_name": "Wollaston",
                    "stop_lat": "42.2665139",
                    "stop_lon": "-71.0203369"
                },
                {
                    "stop_order": "5",
                    "stop_id": "70098",
                    "stop_name": "North Quincy - Inbound",
                    "parent_station": "place-nqncy",
                    "parent_station_name": "North Quincy",
                    "stop_lat": "42.275275",
                    "stop_lon": "-71.029583"
                },
                {
                    "stop_order": "6",
                    "stop_id": "70096",
                    "stop_name": "JFK/UMASS Braintree - Inbound",
                    "parent_station": "place-jfk",
                    "parent_station_name": "JFK/Umass",
                    "stop_lat": "42.320685",
                    "stop_lon": "-71.052391"
                },
                {
                    "stop_order": "7",
                    "stop_id": "70084",
                    "stop_name": "Andrew - Inbound",
                    "parent_station": "place-andrw",
                    "parent_station_name": "Andrew",
                    "stop_lat": "42.330154",
                    "stop_lon": "-71.057655"
                },
                {
                    "stop_order": "8",
                    "stop_id": "70082",
                    "stop_name": "Broadway - Inbound",
                    "parent_station": "place-brdwy",
                    "parent_station_name": "Broadway",
                    "stop_lat": "42.342622",
                    "stop_lon": "-71.056967"
                },
                {
                    "stop_order": "9",
                    "stop_id": "70080",
                    "stop_name": "South Station - Inbound",
                    "parent_station": "place-sstat",
                    "parent_station_name": "South Station",
                    "stop_lat": "42.352271",
                    "stop_lon": "-71.055242"
                },
                {
                    "stop_order": "10",
                    "stop_id": "70078",
                    "stop_name": "Downtown Crossing - to Alewife",
                    "parent_station": "place-dwnxg",
                    "parent_station_name": "Downtown Crossing",
                    "stop_lat": "42.355518",
                    "stop_lon": "-71.060225"
                },
                {
                    "stop_order": "11",
                    "stop_id": "70076",
                    "stop_name": "Park Street - to Alewife",
                    "parent_station": "place-pktrm",
                    "parent_station_name": "Park Street",
                    "stop_lat": "42.35639457",
                    "stop_lon": "-71.0624242"
                },
                {
                    "stop_order": "12",
                    "stop_id": "70074",
                    "stop_name": "Charles/MGH - Outbound",
                    "parent_station": "place-chmnl",
                    "parent_station_name": "Charles/MGH",
                    "stop_lat": "42.361166",
                    "stop_lon": "-71.070628"
                },
                {
                    "stop_order": "13",
                    "stop_id": "70072",
                    "stop_name": "Kendall/MIT - Outbound",
                    "parent_station": "place-knncl",
                    "parent_station_name": "Kendall/MIT",
                    "stop_lat": "42.36249079",
                    "stop_lon": "-71.08617653"
                },
                {
                    "stop_order": "14",
                    "stop_id": "70070",
                    "stop_name": "Central - Outbound",
                    "parent_station": "place-cntsq",
                    "parent_station_name": "Central",
                    "stop_lat": "42.365486",
                    "stop_lon": "-71.103802"
                },
                {
                    "stop_order": "15",
                    "stop_id": "70068",
                    "stop_name": "Harvard - Outbound",
                    "parent_station": "place-harsq",
                    "parent_station_name": "Harvard",
                    "stop_lat": "42.373362",
                    "stop_lon": "-71.118956"
                },
                {
                    "stop_order": "16",
                    "stop_id": "70066",
                    "stop_name": "Porter - Outbound",
                    "parent_station": "place-portr",
                    "parent_station_name": "Porter",
                    "stop_lat": "42.3884",
                    "stop_lon": "-71.119149"
                },
                {
                    "stop_order": "17",
                    "stop_id": "70064",
                    "stop_name": "Davis - Outbound",
                    "parent_station": "place-davis",
                    "parent_station_name": "Davis",
                    "stop_lat": "42.39674",
                    "stop_lon": "-71.121815"
                },
                {
                    "stop_order": "18",
                    "stop_id": "70061",
                    "stop_name": "Alewife",
                    "parent_station": "place-alfcl",
                    "parent_station_name": "Alewife",
                    "stop_lat": "42.395428",
                    "stop_lon": "-71.142483"
                }
            ]
        }
    ]
}